{
  "type": "FeatureCollection",
  "features": [
    {
      "type": "Feature",
      "geometry": {
        "type": "Point",
        "coordinates": [
          139.5654685,
          35.6498651
        ]
      },
      "properties": {
        "osm_id": "node/298428710",
        "name": "鯉寿司",
        "name_reading": "",
        "amenity": "restaurant",
        "shop": "",
        "cuisine": "",
        "addr:prefecture": "",
        "addr:city": "",
        "addr:full": "",
        "source": "OSM"
      }
    },
    {
      "type": "Feature",
      "geometry": {
        "type": "Point",
        "coordinates": [
          139.7407384,
          35.5539926
        ]
      },
      "properties": {
        "osm_id": "node/401948236",
        "name": "大阪すし江戸前すし宝屋",
        "name_reading": "",
        "amenity": "restaurant",
        "shop": "",
        "cuisine": "japanese",
        "addr:prefecture": "",
        "addr:city": "",
        "addr:full": "",
        "source": "OSM"
      }
    },
    {
      "type": "Feature",
      "geometry": {
        "type": "Point",
        "coordinates": [
          139.807591,
          35.737878
        ]
      },
      "properties": {
        "osm_id": "node/573261659",
        "name": "栄寿司 (Sakae Sushi)",
        "name_reading": "",
        "amenity": "restaurant",
        "shop": "",
        "cuisine": "",
        "addr:prefecture": "",
        "addr:city": "",
        "addr:full": "",
        "source": "OSM"
      }
    },
    {
      "type": "Feature",
      "geometry": {
        "type": "Point",
        "coordinates": [
          139.625775,
          35.6833866
        ]
      },
      "properties": {
        "osm_id": "node/600301046",
        "name": "いろは鮨",
        "name_reading": "いろは鮨",
        "amenity": "restaurant",
        "shop": "",
        "cuisine": "sushi",
        "addr:prefecture": "",
        "addr:city": "",
        "addr:full": "",
        "source": "OSM"
      }
    },
    {
      "type": "Feature",
      "geometry": {
        "type": "Point",
        "coordinates": [
          139.9097353,
          35.7697887
        ]
      },
      "properties": {
        "osm_id": "node/611632671",
        "name": "くら寿司",
        "name_reading": "Kura-zushi",
        "amenity": "fast_food",
        "shop": "",
        "cuisine": "sushi",
        "addr:prefecture": "",
        "addr:city": "",
        "addr:full": "",
        "source": "OSM"
      }
    },
    {
      "type": "Feature",
      "geometry": {
        "type": "Point",
        "coordinates": [
          139.6236307,
          35.6467223
        ]
      },
      "properties": {
        "osm_id": "node/635722107",
        "name": "茶月",
        "name_reading": "",
        "amenity": "fast_food",
        "shop": "",
        "cuisine": "sushi",
        "addr:prefecture": "",
        "addr:city": "",
        "addr:full": "",
        "source": "OSM"
      }
    },
    {
      "type": "Feature",
      "geometry": {
        "type": "Point",
        "coordinates": [
          139.9015444,
          35.7841746
        ]
      },
      "properties": {
        "osm_id": "node/677323902",
        "name": "回転寿司もりいち",
        "name_reading": "",
        "amenity": "fast_food",
        "shop": "",
        "cuisine": "sushi",
        "addr:prefecture": "",
        "addr:city": "松戸市",
        "addr:full": "",
        "source": "OSM"
      }
    },
    {
      "type": "Feature",
      "geometry": {
        "type": "Point",
        "coordinates": [
          139.8023872,
          35.7973571
        ]
      },
      "properties": {
        "osm_id": "node/707287880",
        "name": "スシロー",
        "name_reading": "Sushiro",
        "amenity": "fast_food",
        "shop": "",
        "cuisine": "sushi",
        "addr:prefecture": "",
        "addr:city": "足立区",
        "addr:full": "",
        "source": "OSM"
      }
    },
    {
      "type": "Feature",
      "geometry": {
        "type": "Point",
        "coordinates": [
          139.6497104,
          35.5771185
        ]
      },
      "properties": {
        "osm_id": "node/738543978",
        "name": "びっくり寿司",
        "name_reading": "びっくり寿司",
        "amenity": "restaurant",
        "shop": "",
        "cuisine": "寿司",
        "addr:prefecture": "",
        "addr:city": "",
        "addr:full": "",
        "source": "OSM"
      }
    },
    {
      "type": "Feature",
      "geometry": {
        "type": "Point",
        "coordinates": [
          139.6207832,
          35.5508777
        ]
      },
      "properties": {
        "osm_id": "node/739485736",
        "name": "はま寿司",
        "name_reading": "はま寿司",
        "amenity": "fast_food",
        "shop": "",
        "cuisine": "sushi",
        "addr:prefecture": "",
        "addr:city": "横浜市",
        "addr:full": "",
        "source": "OSM"
      }
    },
    {
      "type": "Feature",
      "geometry": {
        "type": "Point",
        "coordinates": [
          139.567349,
          35.654782
        ]
      },
      "properties": {
        "osm_id": "node/765068441",
        "name": "朝寿司",
        "name_reading": "",
        "amenity": "restaurant",
        "shop": "",
        "cuisine": "sushi",
        "addr:prefecture": "",
        "addr:city": "",
        "addr:full": "",
        "source": "OSM"
      }
    },
    {
      "type": "Feature",
      "geometry": {
        "type": "Point",
        "coordinates": [
          139.7450507,
          35.6468131
        ]
      },
      "properties": {
        "osm_id": "node/820061443",
        "name": "うお河岸日本一",
        "name_reading": "うお河岸日本一",
        "amenity": "restaurant",
        "shop": "",
        "cuisine": "sushi",
        "addr:prefecture": "",
        "addr:city": "",
        "addr:full": "",
        "source": "OSM"
      }
    },
    {
      "type": "Feature",
      "geometry": {
        "type": "Point",
        "coordinates": [
          139.9048681,
          35.7858767
        ]
      },
      "properties": {
        "osm_id": "node/821379778",
        "name": "金太楼鮨",
        "name_reading": "",
        "amenity": "restaurant",
        "shop": "",
        "cuisine": "sushi",
        "addr:prefecture": "",
        "addr:city": "",
        "addr:full": "",
        "source": "OSM"
      }
    },
    {
      "type": "Feature",
      "geometry": {
        "type": "Point",
        "coordinates": [
          139.7450109,
          35.6483152
        ]
      },
      "properties": {
        "osm_id": "node/829920348",
        "name": "きむら寿し",
        "name_reading": "",
        "amenity": "restaurant",
        "shop": "",
        "cuisine": "sushi",
        "addr:prefecture": "",
        "addr:city": "",
        "addr:full": "",
        "source": "OSM"
      }
    },
    {
      "type": "Feature",
      "geometry": {
        "type": "Point",
        "coordinates": [
          139.7052079,
          35.6984
        ]
      },
      "properties": {
        "osm_id": "node/872094921",
        "name": "すしざんまい",
        "name_reading": "",
        "amenity": "restaurant",
        "shop": "",
        "cuisine": "sushi",
        "addr:prefecture": "",
        "addr:city": "",
        "addr:full": "",
        "source": "OSM"
      }
    },
    {
      "type": "Feature",
      "geometry": {
        "type": "Point",
        "coordinates": [
          139.623893,
          35.6485411
        ]
      },
      "properties": {
        "osm_id": "node/910680008",
        "name": "宝寿し",
        "name_reading": "",
        "amenity": "restaurant",
        "shop": "",
        "cuisine": "sushi",
        "addr:prefecture": "",
        "addr:city": "",
        "addr:full": "",
        "source": "OSM"
      }
    },
    {
      "type": "Feature",
      "geometry": {
        "type": "Point",
        "coordinates": [
          139.8999365,
          35.7870836
        ]
      },
      "properties": {
        "osm_id": "node/935123557",
        "name": "美幸鮨",
        "name_reading": "",
        "amenity": "restaurant",
        "shop": "",
        "cuisine": "sushi",
        "addr:prefecture": "",
        "addr:city": "",
        "addr:full": "",
        "source": "OSM"
      }
    },
    {
      "type": "Feature",
      "geometry": {
        "type": "Point",
        "coordinates": [
          139.5882507,
          35.6675615
        ]
      },
      "properties": {
        "osm_id": "node/936575778",
        "name": "大名寿司",
        "name_reading": "",
        "amenity": "restaurant",
        "shop": "",
        "cuisine": "sushi",
        "addr:prefecture": "",
        "addr:city": "",
        "addr:full": "",
        "source": "OSM"
      }
    },
    {
      "type": "Feature",
      "geometry": {
        "type": "Point",
        "coordinates": [
          139.6317099,
          35.5729575
        ]
      },
      "properties": {
        "osm_id": "node/938504592",
        "name": "小僧寿し",
        "name_reading": "小僧寿し",
        "amenity": "fast_food",
        "shop": "",
        "cuisine": "sushi",
        "addr:prefecture": "",
        "addr:city": "",
        "addr:full": "",
        "source": "OSM"
      }
    },
    {
      "type": "Feature",
      "geometry": {
        "type": "Point",
        "coordinates": [
          139.8708829,
          35.8072593
        ]
      },
      "properties": {
        "osm_id": "node/953535491",
        "name": "魚屋路",
        "name_reading": "",
        "amenity": "restaurant",
        "shop": "",
        "cuisine": "sushi",
        "addr:prefecture": "",
        "addr:city": "",
        "addr:full": "",
        "source": "OSM"
      }
    },
    {
      "type": "Feature",
      "geometry": {
        "type": "Point",
        "coordinates": [
          139.6447909,
          35.5748605
        ]
      },
      "properties": {
        "osm_id": "node/953712665",
        "name": "よしの寿し (Yoshino Sushi)",
        "name_reading": "",
        "amenity": "restaurant",
        "shop": "",
        "cuisine": "sushi",
        "addr:prefecture": "",
        "addr:city": "",
        "addr:full": "",
        "source": "OSM"
      }
    },
    {
      "type": "Feature",
      "geometry": {
        "type": "Point",
        "coordinates": [
          139.6086727,
          35.6427051
        ]
      },
      "properties": {
        "osm_id": "node/961344411",
        "name": "ちよだ鮨",
        "name_reading": "ちよだ鮨",
        "amenity": "fast_food",
        "shop": "deli",
        "cuisine": "sushi",
        "addr:prefecture": "",
        "addr:city": "",
        "addr:full": "",
        "source": "OSM"
      }
    },
    {
      "type": "Feature",
      "geometry": {
        "type": "Point",
        "coordinates": [
          139.5806312,
          35.7054024
        ]
      },
      "properties": {
        "osm_id": "node/965416489",
        "name": "元祖寿司",
        "name_reading": "元祖寿司",
        "amenity": "fast_food",
        "shop": "",
        "cuisine": "sushi",
        "addr:prefecture": "",
        "addr:city": "",
        "addr:full": "",
        "source": "OSM"
      }
    },
    {
      "type": "Feature",
      "geometry": {
        "type": "Point",
        "coordinates": [
          139.737006,
          35.754511
        ]
      },
      "properties": {
        "osm_id": "node/968505156",
        "name": "もり一",
        "name_reading": "",
        "amenity": "fast_food",
        "shop": "",
        "cuisine": "sushi",
        "addr:prefecture": "",
        "addr:city": "",
        "addr:full": "",
        "source": "OSM"
      }
    },
    {
      "type": "Feature",
      "geometry": {
        "type": "Point",
        "coordinates": [
          139.649833,
          35.5652584
        ]
      },
      "properties": {
        "osm_id": "node/979090853",
        "name": "清水港",
        "name_reading": "清水港",
        "amenity": "restaurant",
        "shop": "",
        "cuisine": "sushi",
        "addr:prefecture": "",
        "addr:city": "",
        "addr:full": "",
        "source": "OSM"
      }
    },
    {
      "type": "Feature",
      "geometry": {
        "type": "Point",
        "coordinates": [
          139.6522504,
          35.5653496
        ]
      },
      "properties": {
        "osm_id": "node/979091003",
        "name": "すし三崎丸",
        "name_reading": "すし三崎丸",
        "amenity": "restaurant",
        "shop": "",
        "cuisine": "sushi",
        "addr:prefecture": "",
        "addr:city": "",
        "addr:full": "",
        "source": "OSM"
      }
    },
    {
      "type": "Feature",
      "geometry": {
        "type": "Point",
        "coordinates": [
          139.7693448,
          35.7046437
        ]
      },
      "properties": {
        "osm_id": "node/992359891",
        "name": "鮨いづ",
        "name_reading": "すしいづ",
        "amenity": "restaurant",
        "shop": "",
        "cuisine": "",
        "addr:prefecture": "",
        "addr:city": "",
        "addr:full": "",
        "source": "OSM"
      }
    },
    {
      "type": "Feature",
      "geometry": {
        "type": "Point",
        "coordinates": [
          139.6698246,
          35.6083667
        ]
      },
      "properties": {
        "osm_id": "node/997874122",
        "name": "元祖寿司 (Gansozushi)",
        "name_reading": "Gansozushi",
        "amenity": "fast_food",
        "shop": "",
        "cuisine": "sushi",
        "addr:prefecture": "",
        "addr:city": "",
        "addr:full": "",
        "source": "OSM"
      }
    },
    {
      "type": "Feature",
      "geometry": {
        "type": "Point",
        "coordinates": [
          139.6472974,
          35.6082811
        ]
      },
      "properties": {
        "osm_id": "node/1061716731",
        "name": "茶月",
        "name_reading": "",
        "amenity": "fast_food",
        "shop": "",
        "cuisine": "sushi",
        "addr:prefecture": "",
        "addr:city": "",
        "addr:full": "",
        "source": "OSM"
      }
    },
    {
      "type": "Feature",
      "geometry": {
        "type": "Point",
        "coordinates": [
          139.5812449,
          35.7141773
        ]
      },
      "properties": {
        "osm_id": "node/1064370059",
        "name": "助六寿司",
        "name_reading": "",
        "amenity": "restaurant",
        "shop": "",
        "cuisine": "sushi",
        "addr:prefecture": "",
        "addr:city": "",
        "addr:full": "",
        "source": "OSM"
      }
    },
    {
      "type": "Feature",
      "geometry": {
        "type": "Point",
        "coordinates": [
          139.7359339,
          35.703995
        ]
      },
      "properties": {
        "osm_id": "node/1075317932",
        "name": "駒すし",
        "name_reading": "Trouver à côté le restau kaido",
        "amenity": "restaurant",
        "shop": "",
        "cuisine": "sushi",
        "addr:prefecture": "",
        "addr:city": "",
        "addr:full": "",
        "source": "OSM"
      }
    },
    {
      "type": "Feature",
      "geometry": {
        "type": "Point",
        "coordinates": [
          139.6135238,
          35.7048975
        ]
      },
      "properties": {
        "osm_id": "node/1076884437",
        "name": "寿司魚熊",
        "name_reading": "",
        "amenity": "restaurant",
        "shop": "",
        "cuisine": "sushi",
        "addr:prefecture": "",
        "addr:city": "",
        "addr:full": "",
        "source": "OSM"
      }
    },
    {
      "type": "Feature",
      "geometry": {
        "type": "Point",
        "coordinates": [
          139.6193224,
          35.7023323
        ]
      },
      "properties": {
        "osm_id": "node/1078253391",
        "name": "金寿司",
        "name_reading": "",
        "amenity": "restaurant",
        "shop": "",
        "cuisine": "sushi",
        "addr:prefecture": "",
        "addr:city": "",
        "addr:full": "",
        "source": "OSM"
      }
    },
    {
      "type": "Feature",
      "geometry": {
        "type": "Point",
        "coordinates": [
          139.7442404,
          35.6108301
        ]
      },
      "properties": {
        "osm_id": "node/1130419748",
        "name": "すし松 青物横丁店",
        "name_reading": "",
        "amenity": "restaurant",
        "shop": "",
        "cuisine": "sushi",
        "addr:prefecture": "",
        "addr:city": "",
        "addr:full": "",
        "source": "OSM"
      }
    },
    {
      "type": "Feature",
      "geometry": {
        "type": "Point",
        "coordinates": [
          139.6842748,
          35.6978082
        ]
      },
      "properties": {
        "osm_id": "node/1139149606",
        "name": "だるま寿司",
        "name_reading": "",
        "amenity": "restaurant",
        "shop": "",
        "cuisine": "sushi",
        "addr:prefecture": "",
        "addr:city": "",
        "addr:full": "",
        "source": "OSM"
      }
    },
    {
      "type": "Feature",
      "geometry": {
        "type": "Point",
        "coordinates": [
          139.5604134,
          35.6178548
        ]
      },
      "properties": {
        "osm_id": "node/1143826841",
        "name": "鮨かず",
        "name_reading": "",
        "amenity": "restaurant",
        "shop": "",
        "cuisine": "sushi",
        "addr:prefecture": "",
        "addr:city": "",
        "addr:full": "",
        "source": "OSM"
      }
    },
    {
      "type": "Feature",
      "geometry": {
        "type": "Point",
        "coordinates": [
          139.5594474,
          35.5963291
        ]
      },
      "properties": {
        "osm_id": "node/1146982585",
        "name": "ジャンボおしどり寿司",
        "name_reading": "",
        "amenity": "restaurant",
        "shop": "",
        "cuisine": "sushi",
        "addr:prefecture": "",
        "addr:city": "",
        "addr:full": "",
        "source": "OSM"
      }
    },
    {
      "type": "Feature",
      "geometry": {
        "type": "Point",
        "coordinates": [
          139.5640527,
          35.5964861
        ]
      },
      "properties": {
        "osm_id": "node/1147182530",
        "name": "大寿司",
        "name_reading": "",
        "amenity": "restaurant",
        "shop": "",
        "cuisine": "sushi",
        "addr:prefecture": "",
        "addr:city": "",
        "addr:full": "",
        "source": "OSM"
      }
    },
    {
      "type": "Feature",
      "geometry": {
        "type": "Point",
        "coordinates": [
          139.7929801,
          35.7115884
        ]
      },
      "properties": {
        "osm_id": "node/1148543090",
        "name": "寿司清",
        "name_reading": "",
        "amenity": "restaurant",
        "shop": "",
        "cuisine": "sushi",
        "addr:prefecture": "",
        "addr:city": "",
        "addr:full": "",
        "source": "OSM"
      }
    },
    {
      "type": "Feature",
      "geometry": {
        "type": "Point",
        "coordinates": [
          139.7926514,
          35.7139088
        ]
      },
      "properties": {
        "osm_id": "node/1148821061",
        "name": "浅草 すし賢 (Sushi-ken)",
        "name_reading": "",
        "amenity": "restaurant",
        "shop": "",
        "cuisine": "sushi",
        "addr:prefecture": "",
        "addr:city": "",
        "addr:full": "",
        "source": "OSM"
      }
    },
    {
      "type": "Feature",
      "geometry": {
        "type": "Point",
        "coordinates": [
          139.5096616,
          35.6016177
        ]
      },
      "properties": {
        "osm_id": "node/1174641596",
        "name": "くら寿司",
        "name_reading": "くら寿司",
        "amenity": "fast_food",
        "shop": "",
        "cuisine": "sushi",
        "addr:prefecture": "",
        "addr:city": "",
        "addr:full": "",
        "source": "OSM"
      }
    },
    {
      "type": "Feature",
      "geometry": {
        "type": "Point",
        "coordinates": [
          139.7452475,
          35.6519595
        ]
      },
      "properties": {
        "osm_id": "node/1182158272",
        "name": "梅寿司",
        "name_reading": "",
        "amenity": "restaurant",
        "shop": "",
        "cuisine": "",
        "addr:prefecture": "",
        "addr:city": "",
        "addr:full": "",
        "source": "OSM"
      }
    },
    {
      "type": "Feature",
      "geometry": {
        "type": "Point",
        "coordinates": [
          139.6754089,
          35.704716
        ]
      },
      "properties": {
        "osm_id": "node/1185857124",
        "name": "鮨若駒",
        "name_reading": "",
        "amenity": "restaurant",
        "shop": "",
        "cuisine": "sushi",
        "addr:prefecture": "",
        "addr:city": "",
        "addr:full": "",
        "source": "OSM"
      }
    },
    {
      "type": "Feature",
      "geometry": {
        "type": "Point",
        "coordinates": [
          139.5410243,
          35.6077492
        ]
      },
      "properties": {
        "osm_id": "node/1191848131",
        "name": "鯉寿司",
        "name_reading": "",
        "amenity": "restaurant",
        "shop": "",
        "cuisine": "sushi",
        "addr:prefecture": "",
        "addr:city": "",
        "addr:full": "",
        "source": "OSM"
      }
    },
    {
      "type": "Feature",
      "geometry": {
        "type": "Point",
        "coordinates": [
          139.5380262,
          35.600926
        ]
      },
      "properties": {
        "osm_id": "node/1193107870",
        "name": "清雅",
        "name_reading": "",
        "amenity": "restaurant",
        "shop": "",
        "cuisine": "sushi",
        "addr:prefecture": "",
        "addr:city": "",
        "addr:full": "",
        "source": "OSM"
      }
    },
    {
      "type": "Feature",
      "geometry": {
        "type": "Point",
        "coordinates": [
          139.5540606,
          35.5908239
        ]
      },
      "properties": {
        "osm_id": "node/1194241996",
        "name": "魚べい",
        "name_reading": "魚べい",
        "amenity": "fast_food",
        "shop": "",
        "cuisine": "sushi",
        "addr:prefecture": "",
        "addr:city": "川崎市",
        "addr:full": "",
        "source": "OSM"
      }
    },
    {
      "type": "Feature",
      "geometry": {
        "type": "Point",
        "coordinates": [
          139.6496232,
          35.7121566
        ]
      },
      "properties": {
        "osm_id": "node/1201605388",
        "name": "栄寿司",
        "name_reading": "",
        "amenity": "restaurant",
        "shop": "",
        "cuisine": "sushi",
        "addr:prefecture": "",
        "addr:city": "",
        "addr:full": "",
        "source": "OSM"
      }
    },
    {
      "type": "Feature",
      "geometry": {
        "type": "Point",
        "coordinates": [
          139.7194219,
          35.6235257
        ]
      },
      "properties": {
        "osm_id": "node/1229246918",
        "name": "阿部",
        "name_reading": "",
        "amenity": "restaurant",
        "shop": "",
        "cuisine": "sushi",
        "addr:prefecture": "",
        "addr:city": "",
        "addr:full": "",
        "source": "OSM"
      }
    },
    {
      "type": "Feature",
      "geometry": {
        "type": "Point",
        "coordinates": [
          139.7705228,
          35.6951728
        ]
      },
      "properties": {
        "osm_id": "node/1231861278",
        "name": "すし栄",
        "name_reading": "",
        "amenity": "restaurant",
        "shop": "",
        "cuisine": "",
        "addr:prefecture": "",
        "addr:city": "",
        "addr:full": "",
        "source": "OSM"
      }
    },
    {
      "type": "Feature",
      "geometry": {
        "type": "Point",
        "coordinates": [
          139.7451926,
          35.6468006
        ]
      },
      "properties": {
        "osm_id": "node/1239281531",
        "name": "蛇の目寿司",
        "name_reading": "",
        "amenity": "restaurant",
        "shop": "",
        "cuisine": "sushi",
        "addr:prefecture": "",
        "addr:city": "",
        "addr:full": "",
        "source": "OSM"
      }
    },
    {
      "type": "Feature",
      "geometry": {
        "type": "Point",
        "coordinates": [
          139.5852878,
          35.6719551
        ]
      },
      "properties": {
        "osm_id": "node/1250390783",
        "name": "重兵衛",
        "name_reading": "",
        "amenity": "restaurant",
        "shop": "",
        "cuisine": "sushi",
        "addr:prefecture": "",
        "addr:city": "",
        "addr:full": "",
        "source": "OSM"
      }
    },
    {
      "type": "Feature",
      "geometry": {
        "type": "Point",
        "coordinates": [
          139.5030462,
          35.6445024
        ]
      },
      "properties": {
        "osm_id": "node/1270422518",
        "name": "はやま寿し",
        "name_reading": "",
        "amenity": "restaurant",
        "shop": "",
        "cuisine": "sushi",
        "addr:prefecture": "",
        "addr:city": "",
        "addr:full": "",
        "source": "OSM"
      }
    },
    {
      "type": "Feature",
      "geometry": {
        "type": "Point",
        "coordinates": [
          139.504229,
          35.6665256
        ]
      },
      "properties": {
        "osm_id": "node/1273538589",
        "name": "東寿司",
        "name_reading": "",
        "amenity": "restaurant",
        "shop": "",
        "cuisine": "sushi",
        "addr:prefecture": "",
        "addr:city": "",
        "addr:full": "",
        "source": "OSM"
      }
    },
    {
      "type": "Feature",
      "geometry": {
        "type": "Point",
        "coordinates": [
          139.5075383,
          35.6662208
        ]
      },
      "properties": {
        "osm_id": "node/1280291316",
        "name": "三四郎鮨",
        "name_reading": "三四郎鮨",
        "amenity": "restaurant",
        "shop": "",
        "cuisine": "sushi",
        "addr:prefecture": "",
        "addr:city": "",
        "addr:full": "",
        "source": "OSM"
      }
    },
    {
      "type": "Feature",
      "geometry": {
        "type": "Point",
        "coordinates": [
          139.7929732,
          35.8167091
        ]
      },
      "properties": {
        "osm_id": "node/1306896591",
        "name": "くら寿司",
        "name_reading": "くら寿司",
        "amenity": "fast_food",
        "shop": "",
        "cuisine": "sushi",
        "addr:prefecture": "",
        "addr:city": "",
        "addr:full": "",
        "source": "OSM"
      }
    },
    {
      "type": "Feature",
      "geometry": {
        "type": "Point",
        "coordinates": [
          139.7647244,
          35.6681693
        ]
      },
      "properties": {
        "osm_id": "node/1326424581",
        "name": "すし栄本店",
        "name_reading": "",
        "amenity": "restaurant",
        "shop": "",
        "cuisine": "sushi",
        "addr:prefecture": "",
        "addr:city": "",
        "addr:full": "",
        "source": "OSM"
      }
    },
    {
      "type": "Feature",
      "geometry": {
        "type": "Point",
        "coordinates": [
          139.894926,
          35.6647704
        ]
      },
      "properties": {
        "osm_id": "node/1330972766",
        "name": "千寿司",
        "name_reading": "",
        "amenity": "restaurant",
        "shop": "",
        "cuisine": "",
        "addr:prefecture": "",
        "addr:city": "",
        "addr:full": "",
        "source": "OSM"
      }
    },
    {
      "type": "Feature",
      "geometry": {
        "type": "Point",
        "coordinates": [
          139.7453598,
          35.6478659
        ]
      },
      "properties": {
        "osm_id": "node/1363176502",
        "name": "魚がし鮨",
        "name_reading": "",
        "amenity": "restaurant",
        "shop": "",
        "cuisine": "",
        "addr:prefecture": "",
        "addr:city": "",
        "addr:full": "",
        "source": "OSM"
      }
    },
    {
      "type": "Feature",
      "geometry": {
        "type": "Point",
        "coordinates": [
          139.7746095,
          35.7111758
        ]
      },
      "properties": {
        "osm_id": "node/1363293958",
        "name": "元祖寿司",
        "name_reading": "",
        "amenity": "fast_food",
        "shop": "",
        "cuisine": "sushi",
        "addr:prefecture": "",
        "addr:city": "",
        "addr:full": "",
        "source": "OSM"
      }
    },
    {
      "type": "Feature",
      "geometry": {
        "type": "Point",
        "coordinates": [
          139.7756034,
          35.6845399
        ]
      },
      "properties": {
        "osm_id": "node/1367460957",
        "name": "寿司貞",
        "name_reading": "",
        "amenity": "restaurant",
        "shop": "",
        "cuisine": "sushi",
        "addr:prefecture": "",
        "addr:city": "",
        "addr:full": "",
        "source": "OSM"
      }
    },
    {
      "type": "Feature",
      "geometry": {
        "type": "Point",
        "coordinates": [
          139.7117933,
          35.6468273
        ]
      },
      "properties": {
        "osm_id": "node/1378334572",
        "name": "びっくり寿司",
        "name_reading": "",
        "amenity": "fast_food",
        "shop": "",
        "cuisine": "sushi",
        "addr:prefecture": "",
        "addr:city": "",
        "addr:full": "",
        "source": "OSM"
      }
    },
    {
      "type": "Feature",
      "geometry": {
        "type": "Point",
        "coordinates": [
          139.7106732,
          35.6478279
        ]
      },
      "properties": {
        "osm_id": "node/1378334783",
        "name": "八兵衛",
        "name_reading": "八兵衛",
        "amenity": "restaurant",
        "shop": "",
        "cuisine": "sushi",
        "addr:prefecture": "",
        "addr:city": "渋谷区",
        "addr:full": "",
        "source": "OSM"
      }
    },
    {
      "type": "Feature",
      "geometry": {
        "type": "Point",
        "coordinates": [
          139.8978737,
          35.7952825
        ]
      },
      "properties": {
        "osm_id": "node/1379557360",
        "name": "魚河岸すし",
        "name_reading": "",
        "amenity": "restaurant",
        "shop": "",
        "cuisine": "",
        "addr:prefecture": "",
        "addr:city": "",
        "addr:full": "",
        "source": "OSM"
      }
    },
    {
      "type": "Feature",
      "geometry": {
        "type": "Point",
        "coordinates": [
          139.6839593,
          35.7138211
        ]
      },
      "properties": {
        "osm_id": "node/1390820759",
        "name": "新富鮨",
        "name_reading": "",
        "amenity": "restaurant",
        "shop": "",
        "cuisine": "sushi",
        "addr:prefecture": "",
        "addr:city": "",
        "addr:full": "",
        "source": "OSM"
      }
    },
    {
      "type": "Feature",
      "geometry": {
        "type": "Point",
        "coordinates": [
          139.9021984,
          35.7605869
        ]
      },
      "properties": {
        "osm_id": "node/1396659324",
        "name": "義寿司",
        "name_reading": "",
        "amenity": "restaurant",
        "shop": "",
        "cuisine": "",
        "addr:prefecture": "",
        "addr:city": "",
        "addr:full": "",
        "source": "OSM"
      }
    },
    {
      "type": "Feature",
      "geometry": {
        "type": "Point",
        "coordinates": [
          139.7752842,
          35.7085969
        ]
      },
      "properties": {
        "osm_id": "node/1401917507",
        "name": "まぐろ人",
        "name_reading": "",
        "amenity": "fast_food",
        "shop": "",
        "cuisine": "sushi",
        "addr:prefecture": "",
        "addr:city": "",
        "addr:full": "",
        "source": "OSM"
      }
    },
    {
      "type": "Feature",
      "geometry": {
        "type": "Point",
        "coordinates": [
          139.8251473,
          35.6447084
        ]
      },
      "properties": {
        "osm_id": "node/1426117013",
        "name": "木場考",
        "name_reading": "",
        "amenity": "restaurant",
        "shop": "",
        "cuisine": "sushi",
        "addr:prefecture": "",
        "addr:city": "",
        "addr:full": "",
        "source": "OSM"
      }
    },
    {
      "type": "Feature",
      "geometry": {
        "type": "Point",
        "coordinates": [
          139.5081207,
          35.605276
        ]
      },
      "properties": {
        "osm_id": "node/1437118481",
        "name": "下高井戸 旭鮨総本店",
        "name_reading": "",
        "amenity": "restaurant",
        "shop": "",
        "cuisine": "",
        "addr:prefecture": "",
        "addr:city": "",
        "addr:full": "",
        "source": "OSM"
      }
    },
    {
      "type": "Feature",
      "geometry": {
        "type": "Point",
        "coordinates": [
          139.5048316,
          35.5885617
        ]
      },
      "properties": {
        "osm_id": "node/1445343074",
        "name": "江戸鮨",
        "name_reading": "",
        "amenity": "restaurant",
        "shop": "",
        "cuisine": "sushi",
        "addr:prefecture": "",
        "addr:city": "",
        "addr:full": "",
        "source": "OSM"
      }
    },
    {
      "type": "Feature",
      "geometry": {
        "type": "Point",
        "coordinates": [
          139.5498304,
          35.5970843
        ]
      },
      "properties": {
        "osm_id": "node/1469481305",
        "name": "鯉寿司",
        "name_reading": "",
        "amenity": "restaurant",
        "shop": "",
        "cuisine": "sushi",
        "addr:prefecture": "",
        "addr:city": "",
        "addr:full": "",
        "source": "OSM"
      }
    },
    {
      "type": "Feature",
      "geometry": {
        "type": "Point",
        "coordinates": [
          139.7523993,
          35.6571181
        ]
      },
      "properties": {
        "osm_id": "node/1475722965",
        "name": "武鮨",
        "name_reading": "",
        "amenity": "restaurant",
        "shop": "",
        "cuisine": "sushi",
        "addr:prefecture": "",
        "addr:city": "",
        "addr:full": "",
        "source": "OSM"
      }
    },
    {
      "type": "Feature",
      "geometry": {
        "type": "Point",
        "coordinates": [
          139.7314189,
          35.6638445
        ]
      },
      "properties": {
        "osm_id": "node/1509875971",
        "name": "おつな寿司",
        "name_reading": "",
        "amenity": "fast_food",
        "shop": "",
        "cuisine": "sushi",
        "addr:prefecture": "",
        "addr:city": "",
        "addr:full": "",
        "source": "OSM"
      }
    },
    {
      "type": "Feature",
      "geometry": {
        "type": "Point",
        "coordinates": [
          139.7612739,
          35.6684966
        ]
      },
      "properties": {
        "osm_id": "node/1519676364",
        "name": "久兵衛 銀座",
        "name_reading": "",
        "amenity": "restaurant",
        "shop": "",
        "cuisine": "sushi",
        "addr:prefecture": "",
        "addr:city": "中央区",
        "addr:full": "",
        "source": "OSM"
      }
    },
    {
      "type": "Feature",
      "geometry": {
        "type": "Point",
        "coordinates": [
          139.7615978,
          35.6685777
        ]
      },
      "properties": {
        "osm_id": "node/1519676374",
        "name": "久兵衛 銀座別館",
        "name_reading": "",
        "amenity": "restaurant",
        "shop": "",
        "cuisine": "sushi",
        "addr:prefecture": "",
        "addr:city": "中央区",
        "addr:full": "",
        "source": "OSM"
      }
    },
    {
      "type": "Feature",
      "geometry": {
        "type": "Point",
        "coordinates": [
          139.6174075,
          35.6980266
        ]
      },
      "properties": {
        "osm_id": "node/1572353965",
        "name": "末廣鮨",
        "name_reading": "",
        "amenity": "restaurant",
        "shop": "",
        "cuisine": "sushi",
        "addr:prefecture": "",
        "addr:city": "",
        "addr:full": "",
        "source": "OSM"
      }
    },
    {
      "type": "Feature",
      "geometry": {
        "type": "Point",
        "coordinates": [
          139.7382897,
          35.7020862
        ]
      },
      "properties": {
        "osm_id": "node/1576537094",
        "name": "築地すし好",
        "name_reading": "",
        "amenity": "restaurant",
        "shop": "",
        "cuisine": "sushi",
        "addr:prefecture": "",
        "addr:city": "",
        "addr:full": "",
        "source": "OSM"
      }
    },
    {
      "type": "Feature",
      "geometry": {
        "type": "Point",
        "coordinates": [
          139.8435592,
          35.7059134
        ]
      },
      "properties": {
        "osm_id": "node/1590706987",
        "name": "ちよだ鮨",
        "name_reading": "",
        "amenity": "fast_food",
        "shop": "",
        "cuisine": "sushi",
        "addr:prefecture": "",
        "addr:city": "",
        "addr:full": "",
        "source": "OSM"
      }
    },
    {
      "type": "Feature",
      "geometry": {
        "type": "Point",
        "coordinates": [
          139.5332399,
          35.6452365
        ]
      },
      "properties": {
        "osm_id": "node/1607524373",
        "name": "鷹八",
        "name_reading": "",
        "amenity": "restaurant",
        "shop": "",
        "cuisine": "sushi",
        "addr:prefecture": "",
        "addr:city": "",
        "addr:full": "",
        "source": "OSM"
      }
    },
    {
      "type": "Feature",
      "geometry": {
        "type": "Point",
        "coordinates": [
          139.5509558,
          35.621843
        ]
      },
      "properties": {
        "osm_id": "node/1609674033",
        "name": "はま寿司",
        "name_reading": "はま寿司",
        "amenity": "fast_food",
        "shop": "",
        "cuisine": "sushi",
        "addr:prefecture": "",
        "addr:city": "",
        "addr:full": "",
        "source": "OSM"
      }
    },
    {
      "type": "Feature",
      "geometry": {
        "type": "Point",
        "coordinates": [
          139.6271403,
          35.6818751
        ]
      },
      "properties": {
        "osm_id": "node/1610334841",
        "name": "ちよだ鮨",
        "name_reading": "ちよだ鮨",
        "amenity": "fast_food",
        "shop": "deli",
        "cuisine": "sushi",
        "addr:prefecture": "",
        "addr:city": "",
        "addr:full": "",
        "source": "OSM"
      }
    },
    {
      "type": "Feature",
      "geometry": {
        "type": "Point",
        "coordinates": [
          139.7587549,
          35.6955775
        ]
      },
      "properties": {
        "osm_id": "node/1634100061",
        "name": "六浜",
        "name_reading": "",
        "amenity": "restaurant",
        "shop": "",
        "cuisine": "sushi",
        "addr:prefecture": "",
        "addr:city": "",
        "addr:full": "",
        "source": "OSM"
      }
    },
    {
      "type": "Feature",
      "geometry": {
        "type": "Point",
        "coordinates": [
          139.5069701,
          35.5598514
        ]
      },
      "properties": {
        "osm_id": "node/1634138821",
        "name": "銀のさら",
        "name_reading": "",
        "amenity": "fast_food",
        "shop": "",
        "cuisine": "sushi",
        "addr:prefecture": "",
        "addr:city": "",
        "addr:full": "",
        "source": "OSM"
      }
    },
    {
      "type": "Feature",
      "geometry": {
        "type": "Point",
        "coordinates": [
          139.6966985,
          35.6611396
        ]
      },
      "properties": {
        "osm_id": "node/1650479482",
        "name": "すしざんまい",
        "name_reading": "",
        "amenity": "restaurant",
        "shop": "",
        "cuisine": "",
        "addr:prefecture": "",
        "addr:city": "",
        "addr:full": "",
        "source": "OSM"
      }
    },
    {
      "type": "Feature",
      "geometry": {
        "type": "Point",
        "coordinates": [
          139.7235744,
          35.6601984
        ]
      },
      "properties": {
        "osm_id": "node/1655440324",
        "name": "権八",
        "name_reading": "",
        "amenity": "restaurant",
        "shop": "",
        "cuisine": "sushi",
        "addr:prefecture": "",
        "addr:city": "",
        "addr:full": "",
        "source": "OSM"
      }
    },
    {
      "type": "Feature",
      "geometry": {
        "type": "Point",
        "coordinates": [
          139.7573488,
          35.6657744
        ]
      },
      "properties": {
        "osm_id": "node/1655991516",
        "name": "回転寿司 一番",
        "name_reading": "",
        "amenity": "fast_food",
        "shop": "",
        "cuisine": "sushi",
        "addr:prefecture": "",
        "addr:city": "",
        "addr:full": "",
        "source": "OSM"
      }
    },
    {
      "type": "Feature",
      "geometry": {
        "type": "Point",
        "coordinates": [
          139.6979943,
          35.6589563
        ]
      },
      "properties": {
        "osm_id": "node/1657336588",
        "name": "天下寿司 Tenkazushi",
        "name_reading": "",
        "amenity": "restaurant",
        "shop": "",
        "cuisine": "sushi",
        "addr:prefecture": "",
        "addr:city": "",
        "addr:full": "",
        "source": "OSM"
      }
    },
    {
      "type": "Feature",
      "geometry": {
        "type": "Point",
        "coordinates": [
          139.6979735,
          35.6609392
        ]
      },
      "properties": {
        "osm_id": "node/1669670245",
        "name": "磯丸水産",
        "name_reading": "",
        "amenity": "restaurant",
        "shop": "",
        "cuisine": "sushi",
        "addr:prefecture": "",
        "addr:city": "",
        "addr:full": "",
        "source": "OSM"
      }
    },
    {
      "type": "Feature",
      "geometry": {
        "type": "Point",
        "coordinates": [
          139.6507816,
          35.7285738
        ]
      },
      "properties": {
        "osm_id": "node/1671591317",
        "name": "銚子丸",
        "name_reading": "銚子丸",
        "amenity": "fast_food",
        "shop": "",
        "cuisine": "sushi",
        "addr:prefecture": "",
        "addr:city": "",
        "addr:full": "",
        "source": "OSM"
      }
    },
    {
      "type": "Feature",
      "geometry": {
        "type": "Point",
        "coordinates": [
          139.5461196,
          35.647356
        ]
      },
      "properties": {
        "osm_id": "node/1678448113",
        "name": "銚子丸",
        "name_reading": "",
        "amenity": "restaurant",
        "shop": "",
        "cuisine": "sushi",
        "addr:prefecture": "",
        "addr:city": "",
        "addr:full": "",
        "source": "OSM"
      }
    },
    {
      "type": "Feature",
      "geometry": {
        "type": "Point",
        "coordinates": [
          139.6984379,
          35.6889683
        ]
      },
      "properties": {
        "osm_id": "node/1682783880",
        "name": "栄寿司 西口店",
        "name_reading": "",
        "amenity": "restaurant",
        "shop": "",
        "cuisine": "sushi",
        "addr:prefecture": "",
        "addr:city": "",
        "addr:full": "",
        "source": "OSM"
      }
    },
    {
      "type": "Feature",
      "geometry": {
        "type": "Point",
        "coordinates": [
          139.6322498,
          35.7759799
        ]
      },
      "properties": {
        "osm_id": "node/1682838469",
        "name": "海鮮三崎港",
        "name_reading": "",
        "amenity": "fast_food",
        "shop": "",
        "cuisine": "sushi",
        "addr:prefecture": "",
        "addr:city": "",
        "addr:full": "",
        "source": "OSM"
      }
    },
    {
      "type": "Feature",
      "geometry": {
        "type": "Point",
        "coordinates": [
          139.7017095,
          35.6563595
        ]
      },
      "properties": {
        "osm_id": "node/1687215366",
        "name": "和泉鮨",
        "name_reading": "",
        "amenity": "restaurant",
        "shop": "",
        "cuisine": "sushi",
        "addr:prefecture": "",
        "addr:city": "",
        "addr:full": "",
        "source": "OSM"
      }
    },
    {
      "type": "Feature",
      "geometry": {
        "type": "Point",
        "coordinates": [
          139.7013941,
          35.6562715
        ]
      },
      "properties": {
        "osm_id": "node/1687240062",
        "name": "兵衛",
        "name_reading": "兵衛",
        "amenity": "restaurant",
        "shop": "",
        "cuisine": "sushi",
        "addr:prefecture": "",
        "addr:city": "",
        "addr:full": "",
        "source": "OSM"
      }
    },
    {
      "type": "Feature",
      "geometry": {
        "type": "Point",
        "coordinates": [
          139.7013076,
          35.6562961
        ]
      },
      "properties": {
        "osm_id": "node/1687240072",
        "name": "和泉鮨",
        "name_reading": "和泉鮨",
        "amenity": "restaurant",
        "shop": "",
        "cuisine": "sushi",
        "addr:prefecture": "",
        "addr:city": "",
        "addr:full": "",
        "source": "OSM"
      }
    },
    {
      "type": "Feature",
      "geometry": {
        "type": "Point",
        "coordinates": [
          139.635862,
          35.5690981
        ]
      },
      "properties": {
        "osm_id": "node/1687831709",
        "name": "七五三鮨",
        "name_reading": "",
        "amenity": "restaurant",
        "shop": "",
        "cuisine": "sushi",
        "addr:prefecture": "",
        "addr:city": "",
        "addr:full": "",
        "source": "OSM"
      }
    },
    {
      "type": "Feature",
      "geometry": {
        "type": "Point",
        "coordinates": [
          139.8021662,
          35.7353505
        ]
      },
      "properties": {
        "osm_id": "node/1690494619",
        "name": "くら寿司",
        "name_reading": "Kura-zushi",
        "amenity": "fast_food",
        "shop": "",
        "cuisine": "sushi",
        "addr:prefecture": "",
        "addr:city": "",
        "addr:full": "",
        "source": "OSM"
      }
    },
    {
      "type": "Feature",
      "geometry": {
        "type": "Point",
        "coordinates": [
          139.6994475,
          35.6557633
        ]
      },
      "properties": {
        "osm_id": "node/1692587810",
        "name": "紅池",
        "name_reading": "",
        "amenity": "restaurant",
        "shop": "",
        "cuisine": "sushi",
        "addr:prefecture": "",
        "addr:city": "",
        "addr:full": "",
        "source": "OSM"
      }
    },
    {
      "type": "Feature",
      "geometry": {
        "type": "Point",
        "coordinates": [
          139.7009826,
          35.6566109
        ]
      },
      "properties": {
        "osm_id": "node/1692587812",
        "name": "若鮨",
        "name_reading": "若鮨",
        "amenity": "restaurant",
        "shop": "",
        "cuisine": "sushi",
        "addr:prefecture": "",
        "addr:city": "",
        "addr:full": "",
        "source": "OSM"
      }
    },
    {
      "type": "Feature",
      "geometry": {
        "type": "Point",
        "coordinates": [
          139.6427294,
          35.7725708
        ]
      },
      "properties": {
        "osm_id": "node/1694658512",
        "name": "すし田むら",
        "name_reading": "",
        "amenity": "restaurant",
        "shop": "",
        "cuisine": "sushi",
        "addr:prefecture": "",
        "addr:city": "",
        "addr:full": "",
        "source": "OSM"
      }
    },
    {
      "type": "Feature",
      "geometry": {
        "type": "Point",
        "coordinates": [
          139.6773593,
          35.7082139
        ]
      },
      "properties": {
        "osm_id": "node/1705405218",
        "name": "桃太郎寿司",
        "name_reading": "",
        "amenity": "restaurant",
        "shop": "",
        "cuisine": "japanese",
        "addr:prefecture": "",
        "addr:city": "",
        "addr:full": "",
        "source": "OSM"
      }
    },
    {
      "type": "Feature",
      "geometry": {
        "type": "Point",
        "coordinates": [
          139.5429587,
          35.713443
        ]
      },
      "properties": {
        "osm_id": "node/1708209578",
        "name": "幸寿司",
        "name_reading": "こうずし",
        "amenity": "restaurant",
        "shop": "",
        "cuisine": "sushi",
        "addr:prefecture": "",
        "addr:city": "武蔵野市",
        "addr:full": "",
        "source": "OSM"
      }
    },
    {
      "type": "Feature",
      "geometry": {
        "type": "Point",
        "coordinates": [
          139.5699652,
          35.6581222
        ]
      },
      "properties": {
        "osm_id": "node/1714615101",
        "name": "くら寿司",
        "name_reading": "Kura-zushi",
        "amenity": "fast_food",
        "shop": "",
        "cuisine": "sushi",
        "addr:prefecture": "",
        "addr:city": "",
        "addr:full": "",
        "source": "OSM"
      }
    },
    {
      "type": "Feature",
      "geometry": {
        "type": "Point",
        "coordinates": [
          139.7578769,
          35.667363
        ]
      },
      "properties": {
        "osm_id": "node/1716141297",
        "name": "菊寿司",
        "name_reading": "",
        "amenity": "restaurant",
        "shop": "",
        "cuisine": "sushi",
        "addr:prefecture": "",
        "addr:city": "",
        "addr:full": "",
        "source": "OSM"
      }
    },
    {
      "type": "Feature",
      "geometry": {
        "type": "Point",
        "coordinates": [
          139.6465189,
          35.5547868
        ]
      },
      "properties": {
        "osm_id": "node/1737496899",
        "name": "折鶴",
        "name_reading": "",
        "amenity": "restaurant",
        "shop": "",
        "cuisine": "sushi",
        "addr:prefecture": "",
        "addr:city": "",
        "addr:full": "",
        "source": "OSM"
      }
    },
    {
      "type": "Feature",
      "geometry": {
        "type": "Point",
        "coordinates": [
          139.6952014,
          35.7804621
        ]
      },
      "properties": {
        "osm_id": "node/1742505141",
        "name": "くら寿司",
        "name_reading": "Kura-zushi",
        "amenity": "fast_food",
        "shop": "",
        "cuisine": "sushi",
        "addr:prefecture": "",
        "addr:city": "",
        "addr:full": "",
        "source": "OSM"
      }
    },
    {
      "type": "Feature",
      "geometry": {
        "type": "Point",
        "coordinates": [
          139.7464754,
          35.739682
        ]
      },
      "properties": {
        "osm_id": "node/1743637624",
        "name": "げんきまる",
        "name_reading": "",
        "amenity": "restaurant",
        "shop": "",
        "cuisine": "japanese;sushi",
        "addr:prefecture": "",
        "addr:city": "",
        "addr:full": "",
        "source": "OSM"
      }
    },
    {
      "type": "Feature",
      "geometry": {
        "type": "Point",
        "coordinates": [
          139.7465735,
          35.7397631
        ]
      },
      "properties": {
        "osm_id": "node/1743637631",
        "name": "ちよだ鮨",
        "name_reading": "ちよだ鮨",
        "amenity": "fast_food",
        "shop": "",
        "cuisine": "sushi",
        "addr:prefecture": "",
        "addr:city": "",
        "addr:full": "",
        "source": "OSM"
      }
    },
    {
      "type": "Feature",
      "geometry": {
        "type": "Point",
        "coordinates": [
          139.5784742,
          35.7028396
        ]
      },
      "properties": {
        "osm_id": "node/1748046020",
        "name": "すし処 浜",
        "name_reading": "すし処 浜",
        "amenity": "restaurant",
        "shop": "",
        "cuisine": "sushi",
        "addr:prefecture": "",
        "addr:city": "",
        "addr:full": "",
        "source": "OSM"
      }
    },
    {
      "type": "Feature",
      "geometry": {
        "type": "Point",
        "coordinates": [
          139.5790052,
          35.7028136
        ]
      },
      "properties": {
        "osm_id": "node/1748046032",
        "name": "天下寿司",
        "name_reading": "てんかずし",
        "amenity": "fast_food",
        "shop": "",
        "cuisine": "sushi",
        "addr:prefecture": "",
        "addr:city": "武蔵野市",
        "addr:full": "",
        "source": "OSM"
      }
    },
    {
      "type": "Feature",
      "geometry": {
        "type": "Point",
        "coordinates": [
          139.6541684,
          35.6555832
        ]
      },
      "properties": {
        "osm_id": "node/1754092130",
        "name": "寿司の美登利総本店 本館",
        "name_reading": "",
        "amenity": "restaurant",
        "shop": "",
        "cuisine": "sushi",
        "addr:prefecture": "",
        "addr:city": "",
        "addr:full": "",
        "source": "OSM"
      }
    },
    {
      "type": "Feature",
      "geometry": {
        "type": "Point",
        "coordinates": [
          139.5674254,
          35.6814252
        ]
      },
      "properties": {
        "osm_id": "node/1757672493",
        "name": "かっぱ寿司",
        "name_reading": "Kappa-zushi",
        "amenity": "fast_food",
        "shop": "",
        "cuisine": "sushi",
        "addr:prefecture": "",
        "addr:city": "",
        "addr:full": "",
        "source": "OSM"
      }
    },
    {
      "type": "Feature",
      "geometry": {
        "type": "Point",
        "coordinates": [
          139.6585575,
          35.6711105
        ]
      },
      "properties": {
        "osm_id": "node/1763177873",
        "name": "味の花",
        "name_reading": "",
        "amenity": "restaurant",
        "shop": "",
        "cuisine": "sushi",
        "addr:prefecture": "",
        "addr:city": "",
        "addr:full": "",
        "source": "OSM"
      }
    },
    {
      "type": "Feature",
      "geometry": {
        "type": "Point",
        "coordinates": [
          139.5417249,
          35.7115018
        ]
      },
      "properties": {
        "osm_id": "node/1765227915",
        "name": "さくら鮨",
        "name_reading": "さくらすし",
        "amenity": "restaurant",
        "shop": "",
        "cuisine": "sushi",
        "addr:prefecture": "",
        "addr:city": "武蔵野市",
        "addr:full": "",
        "source": "OSM"
      }
    },
    {
      "type": "Feature",
      "geometry": {
        "type": "Point",
        "coordinates": [
          139.7466657,
          35.6468141
        ]
      },
      "properties": {
        "osm_id": "node/1771526127",
        "name": "割烹 鮨はな",
        "name_reading": "",
        "amenity": "restaurant",
        "shop": "",
        "cuisine": "",
        "addr:prefecture": "",
        "addr:city": "",
        "addr:full": "",
        "source": "OSM"
      }
    },
    {
      "type": "Feature",
      "geometry": {
        "type": "Point",
        "coordinates": [
          139.7340237,
          35.6379926
        ]
      },
      "properties": {
        "osm_id": "node/1772706084",
        "name": "鮨八",
        "name_reading": "",
        "amenity": "restaurant",
        "shop": "",
        "cuisine": "sushi",
        "addr:prefecture": "",
        "addr:city": "",
        "addr:full": "",
        "source": "OSM"
      }
    },
    {
      "type": "Feature",
      "geometry": {
        "type": "Point",
        "coordinates": [
          139.5848813,
          35.6611524
        ]
      },
      "properties": {
        "osm_id": "node/1781366840",
        "name": "円満寿司",
        "name_reading": "",
        "amenity": "restaurant",
        "shop": "",
        "cuisine": "sushi",
        "addr:prefecture": "",
        "addr:city": "",
        "addr:full": "",
        "source": "OSM"
      }
    },
    {
      "type": "Feature",
      "geometry": {
        "type": "Point",
        "coordinates": [
          139.7122214,
          35.7860548
        ]
      },
      "properties": {
        "osm_id": "node/1785474681",
        "name": "すし銚子丸",
        "name_reading": "",
        "amenity": "restaurant",
        "shop": "",
        "cuisine": "sushi",
        "addr:prefecture": "",
        "addr:city": "",
        "addr:full": "",
        "source": "OSM"
      }
    },
    {
      "type": "Feature",
      "geometry": {
        "type": "Point",
        "coordinates": [
          139.8787558,
          35.6858412
        ]
      },
      "properties": {
        "osm_id": "node/1799405619",
        "name": "くら寿司",
        "name_reading": "Kura-zushi",
        "amenity": "fast_food",
        "shop": "",
        "cuisine": "sushi",
        "addr:prefecture": "",
        "addr:city": "",
        "addr:full": "",
        "source": "OSM"
      }
    },
    {
      "type": "Feature",
      "geometry": {
        "type": "Point",
        "coordinates": [
          139.7394276,
          35.6249333
        ]
      },
      "properties": {
        "osm_id": "node/1799415301",
        "name": "くら寿司",
        "name_reading": "Kura-zushi",
        "amenity": "fast_food",
        "shop": "",
        "cuisine": "sushi",
        "addr:prefecture": "",
        "addr:city": "",
        "addr:full": "",
        "source": "OSM"
      }
    },
    {
      "type": "Feature",
      "geometry": {
        "type": "Point",
        "coordinates": [
          139.5112203,
          35.7128615
        ]
      },
      "properties": {
        "osm_id": "node/1799429149",
        "name": "くら寿司",
        "name_reading": "Kura-zushi",
        "amenity": "fast_food",
        "shop": "",
        "cuisine": "sushi",
        "addr:prefecture": "",
        "addr:city": "",
        "addr:full": "",
        "source": "OSM"
      }
    },
    {
      "type": "Feature",
      "geometry": {
        "type": "Point",
        "coordinates": [
          139.5967503,
          35.7165478
        ]
      },
      "properties": {
        "osm_id": "node/1799462371",
        "name": "くら寿司",
        "name_reading": "Kura-zushi",
        "amenity": "fast_food",
        "shop": "",
        "cuisine": "sushi",
        "addr:prefecture": "",
        "addr:city": "",
        "addr:full": "",
        "source": "OSM"
      }
    },
    {
      "type": "Feature",
      "geometry": {
        "type": "Point",
        "coordinates": [
          139.7699968,
          35.774714
        ]
      },
      "properties": {
        "osm_id": "node/1799510219",
        "name": "くら寿司",
        "name_reading": "くら寿司",
        "amenity": "fast_food",
        "shop": "",
        "cuisine": "sushi",
        "addr:prefecture": "",
        "addr:city": "",
        "addr:full": "",
        "source": "OSM"
      }
    },
    {
      "type": "Feature",
      "geometry": {
        "type": "Point",
        "coordinates": [
          139.8187983,
          35.7779989
        ]
      },
      "properties": {
        "osm_id": "node/1799518432",
        "name": "くら寿司",
        "name_reading": "Kura-zushi",
        "amenity": "fast_food",
        "shop": "",
        "cuisine": "sushi",
        "addr:prefecture": "",
        "addr:city": "",
        "addr:full": "",
        "source": "OSM"
      }
    },
    {
      "type": "Feature",
      "geometry": {
        "type": "Point",
        "coordinates": [
          139.6058451,
          35.6734446
        ]
      },
      "properties": {
        "osm_id": "node/1804157834",
        "name": "スシロー",
        "name_reading": "Sushiro",
        "amenity": "fast_food",
        "shop": "",
        "cuisine": "sushi",
        "addr:prefecture": "",
        "addr:city": "世田谷区",
        "addr:full": "",
        "source": "OSM"
      }
    },
    {
      "type": "Feature",
      "geometry": {
        "type": "Point",
        "coordinates": [
          139.7519984,
          35.7239059
        ]
      },
      "properties": {
        "osm_id": "node/1810181140",
        "name": "はま寿司",
        "name_reading": "Hamazushi",
        "amenity": "fast_food",
        "shop": "",
        "cuisine": "sushi",
        "addr:prefecture": "",
        "addr:city": "",
        "addr:full": "",
        "source": "OSM"
      }
    },
    {
      "type": "Feature",
      "geometry": {
        "type": "Point",
        "coordinates": [
          139.7444506,
          35.5972674
        ]
      },
      "properties": {
        "osm_id": "node/1810195313",
        "name": "はま寿司",
        "name_reading": "Hamazushi",
        "amenity": "fast_food",
        "shop": "",
        "cuisine": "sushi",
        "addr:prefecture": "",
        "addr:city": "品川区",
        "addr:full": "",
        "source": "OSM"
      }
    },
    {
      "type": "Feature",
      "geometry": {
        "type": "Point",
        "coordinates": [
          139.6349578,
          35.6477868
        ]
      },
      "properties": {
        "osm_id": "node/1810223713",
        "name": "はま寿司",
        "name_reading": "Hamazushi",
        "amenity": "fast_food",
        "shop": "",
        "cuisine": "sushi",
        "addr:prefecture": "",
        "addr:city": "世田谷区",
        "addr:full": "",
        "source": "OSM"
      }
    },
    {
      "type": "Feature",
      "geometry": {
        "type": "Point",
        "coordinates": [
          139.667429,
          35.6601676
        ]
      },
      "properties": {
        "osm_id": "node/1817093512",
        "name": "海鮮三崎港",
        "name_reading": "Kaisen Misaki-ko",
        "amenity": "fast_food",
        "shop": "",
        "cuisine": "sushi",
        "addr:prefecture": "",
        "addr:city": "",
        "addr:full": "",
        "source": "OSM"
      }
    },
    {
      "type": "Feature",
      "geometry": {
        "type": "Point",
        "coordinates": [
          139.6675046,
          35.6611683
        ]
      },
      "properties": {
        "osm_id": "node/1818395107",
        "name": "元祖寿司",
        "name_reading": "元祖寿司",
        "amenity": "fast_food",
        "shop": "",
        "cuisine": "sushi",
        "addr:prefecture": "",
        "addr:city": "",
        "addr:full": "",
        "source": "OSM"
      }
    },
    {
      "type": "Feature",
      "geometry": {
        "type": "Point",
        "coordinates": [
          139.5795389,
          35.7028349
        ]
      },
      "properties": {
        "osm_id": "node/1818443765",
        "name": "元祖寿司",
        "name_reading": "Gansozushi",
        "amenity": "fast_food",
        "shop": "",
        "cuisine": "sushi",
        "addr:prefecture": "",
        "addr:city": "",
        "addr:full": "",
        "source": "OSM"
      }
    },
    {
      "type": "Feature",
      "geometry": {
        "type": "Point",
        "coordinates": [
          139.5999783,
          35.7043593
        ]
      },
      "properties": {
        "osm_id": "node/1818457198",
        "name": "天下寿司 (Tenkazushi)",
        "name_reading": "Tenkazushi",
        "amenity": "restaurant",
        "shop": "",
        "cuisine": "sushi",
        "addr:prefecture": "",
        "addr:city": "",
        "addr:full": "",
        "source": "OSM"
      }
    },
    {
      "type": "Feature",
      "geometry": {
        "type": "Point",
        "coordinates": [
          139.5591582,
          35.6451289
        ]
      },
      "properties": {
        "osm_id": "node/1826456725",
        "name": "小僧寿し",
        "name_reading": "小僧寿し",
        "amenity": "fast_food",
        "shop": "",
        "cuisine": "sushi",
        "addr:prefecture": "",
        "addr:city": "",
        "addr:full": "",
        "source": "OSM"
      }
    },
    {
      "type": "Feature",
      "geometry": {
        "type": "Point",
        "coordinates": [
          139.640711,
          35.6659588
        ]
      },
      "properties": {
        "osm_id": "node/1845620665",
        "name": "下高井戸旭鮨総本店",
        "name_reading": "下高井戸旭鮨総本店",
        "amenity": "restaurant",
        "shop": "",
        "cuisine": "sushi",
        "addr:prefecture": "",
        "addr:city": "",
        "addr:full": "",
        "source": "OSM"
      }
    },
    {
      "type": "Feature",
      "geometry": {
        "type": "Point",
        "coordinates": [
          139.8349818,
          35.6650021
        ]
      },
      "properties": {
        "osm_id": "node/1862485165",
        "name": "江戸前まぐろ人",
        "name_reading": "",
        "amenity": "restaurant",
        "shop": "",
        "cuisine": "sushi",
        "addr:prefecture": "",
        "addr:city": "",
        "addr:full": "",
        "source": "OSM"
      }
    },
    {
      "type": "Feature",
      "geometry": {
        "type": "Point",
        "coordinates": [
          139.8758263,
          35.7571525
        ]
      },
      "properties": {
        "osm_id": "node/1883817829",
        "name": "大黒鮨",
        "name_reading": "",
        "amenity": "restaurant",
        "shop": "",
        "cuisine": "sushi",
        "addr:prefecture": "",
        "addr:city": "",
        "addr:full": "",
        "source": "OSM"
      }
    },
    {
      "type": "Feature",
      "geometry": {
        "type": "Point",
        "coordinates": [
          139.7455664,
          35.6483368
        ]
      },
      "properties": {
        "osm_id": "node/1892549555",
        "name": "すしかね",
        "name_reading": "",
        "amenity": "restaurant",
        "shop": "",
        "cuisine": "",
        "addr:prefecture": "",
        "addr:city": "",
        "addr:full": "",
        "source": "OSM"
      }
    },
    {
      "type": "Feature",
      "geometry": {
        "type": "Point",
        "coordinates": [
          139.7277202,
          35.6602784
        ]
      },
      "properties": {
        "osm_id": "node/1894035632",
        "name": "鮨 山路",
        "name_reading": "",
        "amenity": "restaurant",
        "shop": "",
        "cuisine": "sushi",
        "addr:prefecture": "",
        "addr:city": "",
        "addr:full": "",
        "source": "OSM"
      }
    },
    {
      "type": "Feature",
      "geometry": {
        "type": "Point",
        "coordinates": [
          139.7277095,
          35.658619
        ]
      },
      "properties": {
        "osm_id": "node/1894070064",
        "name": "いけ勘",
        "name_reading": "いけ勘",
        "amenity": "restaurant",
        "shop": "",
        "cuisine": "sushi",
        "addr:prefecture": "",
        "addr:city": "",
        "addr:full": "",
        "source": "OSM"
      }
    },
    {
      "type": "Feature",
      "geometry": {
        "type": "Point",
        "coordinates": [
          139.7728178,
          35.698635
        ]
      },
      "properties": {
        "osm_id": "node/1914950017",
        "name": "うず潮",
        "name_reading": "うずしお",
        "amenity": "restaurant",
        "shop": "",
        "cuisine": "sushi",
        "addr:prefecture": "",
        "addr:city": "",
        "addr:full": "",
        "source": "OSM"
      }
    },
    {
      "type": "Feature",
      "geometry": {
        "type": "Point",
        "coordinates": [
          139.7714537,
          35.697688
        ]
      },
      "properties": {
        "osm_id": "node/1915016876",
        "name": "元祖寿司",
        "name_reading": "",
        "amenity": "fast_food",
        "shop": "",
        "cuisine": "sushi",
        "addr:prefecture": "",
        "addr:city": "",
        "addr:full": "",
        "source": "OSM"
      }
    },
    {
      "type": "Feature",
      "geometry": {
        "type": "Point",
        "coordinates": [
          139.7217614,
          35.5452067
        ]
      },
      "properties": {
        "osm_id": "node/1916732658",
        "name": "東寿司",
        "name_reading": "",
        "amenity": "restaurant",
        "shop": "",
        "cuisine": "sushi",
        "addr:prefecture": "",
        "addr:city": "",
        "addr:full": "",
        "source": "OSM"
      }
    },
    {
      "type": "Feature",
      "geometry": {
        "type": "Point",
        "coordinates": [
          139.7129436,
          35.7101216
        ]
      },
      "properties": {
        "osm_id": "node/1933337334",
        "name": "安兵衛 鮨",
        "name_reading": "",
        "amenity": "restaurant",
        "shop": "",
        "cuisine": "sushi",
        "addr:prefecture": "",
        "addr:city": "",
        "addr:full": "",
        "source": "OSM"
      }
    },
    {
      "type": "Feature",
      "geometry": {
        "type": "Point",
        "coordinates": [
          139.5794095,
          35.6302919
        ]
      },
      "properties": {
        "osm_id": "node/1939235298",
        "name": "富鮨",
        "name_reading": "",
        "amenity": "restaurant",
        "shop": "",
        "cuisine": "sushi",
        "addr:prefecture": "",
        "addr:city": "",
        "addr:full": "",
        "source": "OSM"
      }
    },
    {
      "type": "Feature",
      "geometry": {
        "type": "Point",
        "coordinates": [
          139.516325,
          35.6015774
        ]
      },
      "properties": {
        "osm_id": "node/1942793759",
        "name": "みねや鮨",
        "name_reading": "",
        "amenity": "restaurant",
        "shop": "",
        "cuisine": "sushi",
        "addr:prefecture": "",
        "addr:city": "",
        "addr:full": "",
        "source": "OSM"
      }
    },
    {
      "type": "Feature",
      "geometry": {
        "type": "Point",
        "coordinates": [
          139.5260743,
          35.5965574
        ]
      },
      "properties": {
        "osm_id": "node/1943005797",
        "name": "鮨ひろ",
        "name_reading": "",
        "amenity": "restaurant",
        "shop": "",
        "cuisine": "sushi",
        "addr:prefecture": "",
        "addr:city": "",
        "addr:full": "",
        "source": "OSM"
      }
    },
    {
      "type": "Feature",
      "geometry": {
        "type": "Point",
        "coordinates": [
          139.5774498,
          35.5347062
        ]
      },
      "properties": {
        "osm_id": "node/1947380037",
        "name": "寿司栄(Sushi Sakae)",
        "name_reading": "",
        "amenity": "restaurant",
        "shop": "",
        "cuisine": "",
        "addr:prefecture": "",
        "addr:city": "",
        "addr:full": "",
        "source": "OSM"
      }
    },
    {
      "type": "Feature",
      "geometry": {
        "type": "Point",
        "coordinates": [
          139.6310902,
          35.7532901
        ]
      },
      "properties": {
        "osm_id": "node/1955398865",
        "name": "スシロー",
        "name_reading": "Sushiro",
        "amenity": "fast_food",
        "shop": "",
        "cuisine": "sushi",
        "addr:prefecture": "",
        "addr:city": "練馬区",
        "addr:full": "",
        "source": "OSM"
      }
    },
    {
      "type": "Feature",
      "geometry": {
        "type": "Point",
        "coordinates": [
          139.6200456,
          35.7760475
        ]
      },
      "properties": {
        "osm_id": "node/1955431746",
        "name": "スシロー",
        "name_reading": "Sushiro",
        "amenity": "fast_food",
        "shop": "",
        "cuisine": "sushi",
        "addr:prefecture": "",
        "addr:city": "和光市",
        "addr:full": "",
        "source": "OSM"
      }
    },
    {
      "type": "Feature",
      "geometry": {
        "type": "Point",
        "coordinates": [
          139.8682772,
          35.7317146
        ]
      },
      "properties": {
        "osm_id": "node/1955558998",
        "name": "スシロー",
        "name_reading": "Sushiro",
        "amenity": "fast_food",
        "shop": "",
        "cuisine": "sushi",
        "addr:prefecture": "",
        "addr:city": "葛飾区",
        "addr:full": "",
        "source": "OSM"
      }
    },
    {
      "type": "Feature",
      "geometry": {
        "type": "Point",
        "coordinates": [
          139.8287893,
          35.6766141
        ]
      },
      "properties": {
        "osm_id": "node/1964060491",
        "name": "スシロー",
        "name_reading": "Sushiro",
        "amenity": "fast_food",
        "shop": "",
        "cuisine": "sushi",
        "addr:prefecture": "",
        "addr:city": "江東区",
        "addr:full": "",
        "source": "OSM"
      }
    },
    {
      "type": "Feature",
      "geometry": {
        "type": "Point",
        "coordinates": [
          139.895097,
          35.6728748
        ]
      },
      "properties": {
        "osm_id": "node/1964064151",
        "name": "スシロー",
        "name_reading": "スシロー",
        "amenity": "fast_food",
        "shop": "",
        "cuisine": "sushi",
        "addr:prefecture": "",
        "addr:city": "市川市",
        "addr:full": "",
        "source": "OSM"
      }
    },
    {
      "type": "Feature",
      "geometry": {
        "type": "Point",
        "coordinates": [
          139.716722,
          35.6603887
        ]
      },
      "properties": {
        "osm_id": "node/1966307677",
        "name": "寿司屋のくま川",
        "name_reading": "",
        "amenity": "restaurant",
        "shop": "",
        "cuisine": "",
        "addr:prefecture": "",
        "addr:city": "港区",
        "addr:full": "",
        "source": "OSM"
      }
    },
    {
      "type": "Feature",
      "geometry": {
        "type": "Point",
        "coordinates": [
          139.5443246,
          35.7028353
        ]
      },
      "properties": {
        "osm_id": "node/1966327802",
        "name": "大江戸",
        "name_reading": "大江戸",
        "amenity": "restaurant",
        "shop": "",
        "cuisine": "sushi",
        "addr:prefecture": "",
        "addr:city": "武蔵野市",
        "addr:full": "",
        "source": "OSM"
      }
    },
    {
      "type": "Feature",
      "geometry": {
        "type": "Point",
        "coordinates": [
          139.6538429,
          35.6558012
        ]
      },
      "properties": {
        "osm_id": "node/1966550505",
        "name": "寿司の美登利",
        "name_reading": "",
        "amenity": "restaurant",
        "shop": "",
        "cuisine": "sushi",
        "addr:prefecture": "",
        "addr:city": "",
        "addr:full": "",
        "source": "OSM"
      }
    },
    {
      "type": "Feature",
      "geometry": {
        "type": "Point",
        "coordinates": [
          139.6748895,
          35.6408006
        ]
      },
      "properties": {
        "osm_id": "node/1975902750",
        "name": "金寿司",
        "name_reading": "",
        "amenity": "restaurant",
        "shop": "",
        "cuisine": "sushi",
        "addr:prefecture": "",
        "addr:city": "",
        "addr:full": "",
        "source": "OSM"
      }
    },
    {
      "type": "Feature",
      "geometry": {
        "type": "Point",
        "coordinates": [
          139.7218383,
          35.6247325
        ]
      },
      "properties": {
        "osm_id": "node/1982924046",
        "name": "龍寿司",
        "name_reading": "",
        "amenity": "restaurant",
        "shop": "",
        "cuisine": "sushi",
        "addr:prefecture": "",
        "addr:city": "",
        "addr:full": "",
        "source": "OSM"
      }
    },
    {
      "type": "Feature",
      "geometry": {
        "type": "Point",
        "coordinates": [
          139.6425314,
          35.6946907
        ]
      },
      "properties": {
        "osm_id": "node/2008286788",
        "name": "松よし",
        "name_reading": "",
        "amenity": "restaurant",
        "shop": "",
        "cuisine": "sushi",
        "addr:prefecture": "",
        "addr:city": "",
        "addr:full": "",
        "source": "OSM"
      }
    },
    {
      "type": "Feature",
      "geometry": {
        "type": "Point",
        "coordinates": [
          139.7600571,
          35.6687307
        ]
      },
      "properties": {
        "osm_id": "node/2017978623",
        "name": "鮨所 おざわ",
        "name_reading": "",
        "amenity": "restaurant",
        "shop": "",
        "cuisine": "sushi",
        "addr:prefecture": "",
        "addr:city": "",
        "addr:full": "",
        "source": "OSM"
      }
    },
    {
      "type": "Feature",
      "geometry": {
        "type": "Point",
        "coordinates": [
          139.7597272,
          35.6682348
        ]
      },
      "properties": {
        "osm_id": "node/2017978624",
        "name": "鮨紀文",
        "name_reading": "",
        "amenity": "restaurant",
        "shop": "",
        "cuisine": "sushi",
        "addr:prefecture": "",
        "addr:city": "",
        "addr:full": "",
        "source": "OSM"
      }
    },
    {
      "type": "Feature",
      "geometry": {
        "type": "Point",
        "coordinates": [
          139.7601251,
          35.6693269
        ]
      },
      "properties": {
        "osm_id": "node/2018089659",
        "name": "すしざんまい",
        "name_reading": "",
        "amenity": "restaurant",
        "shop": "",
        "cuisine": "sushi",
        "addr:prefecture": "",
        "addr:city": "",
        "addr:full": "",
        "source": "OSM"
      }
    },
    {
      "type": "Feature",
      "geometry": {
        "type": "Point",
        "coordinates": [
          139.7606189,
          35.6694267
        ]
      },
      "properties": {
        "osm_id": "node/2018185417",
        "name": "おざわ",
        "name_reading": "",
        "amenity": "restaurant",
        "shop": "",
        "cuisine": "sushi",
        "addr:prefecture": "",
        "addr:city": "",
        "addr:full": "",
        "source": "OSM"
      }
    },
    {
      "type": "Feature",
      "geometry": {
        "type": "Point",
        "coordinates": [
          139.7605481,
          35.6693576
        ]
      },
      "properties": {
        "osm_id": "node/2018185474",
        "name": "飛栄",
        "name_reading": "",
        "amenity": "restaurant",
        "shop": "",
        "cuisine": "sushi",
        "addr:prefecture": "",
        "addr:city": "",
        "addr:full": "",
        "source": "OSM"
      }
    },
    {
      "type": "Feature",
      "geometry": {
        "type": "Point",
        "coordinates": [
          139.6962242,
          35.646189
        ]
      },
      "properties": {
        "osm_id": "node/2067996572",
        "name": "築地　すし好",
        "name_reading": "",
        "amenity": "restaurant",
        "shop": "",
        "cuisine": "",
        "addr:prefecture": "",
        "addr:city": "",
        "addr:full": "",
        "source": "OSM"
      }
    },
    {
      "type": "Feature",
      "geometry": {
        "type": "Point",
        "coordinates": [
          139.6980203,
          35.6438771
        ]
      },
      "properties": {
        "osm_id": "node/2068010581",
        "name": "くら寿司",
        "name_reading": "くら寿司",
        "amenity": "fast_food",
        "shop": "",
        "cuisine": "sushi",
        "addr:prefecture": "",
        "addr:city": "",
        "addr:full": "",
        "source": "OSM"
      }
    },
    {
      "type": "Feature",
      "geometry": {
        "type": "Point",
        "coordinates": [
          139.5994865,
          35.6883009
        ]
      },
      "properties": {
        "osm_id": "node/2068066463",
        "name": "寿司 及川",
        "name_reading": "",
        "amenity": "restaurant",
        "shop": "",
        "cuisine": "sushi",
        "addr:prefecture": "",
        "addr:city": "",
        "addr:full": "",
        "source": "OSM"
      }
    },
    {
      "type": "Feature",
      "geometry": {
        "type": "Point",
        "coordinates": [
          139.6964392,
          35.5632408
        ]
      },
      "properties": {
        "osm_id": "node/2079340113",
        "name": "築地日本海 矢口店",
        "name_reading": "",
        "amenity": "restaurant",
        "shop": "",
        "cuisine": "sushi",
        "addr:prefecture": "",
        "addr:city": "",
        "addr:full": "",
        "source": "OSM"
      }
    },
    {
      "type": "Feature",
      "geometry": {
        "type": "Point",
        "coordinates": [
          139.7002401,
          35.5608218
        ]
      },
      "properties": {
        "osm_id": "node/2079567810",
        "name": "茶月",
        "name_reading": "",
        "amenity": "fast_food",
        "shop": "",
        "cuisine": "sushi",
        "addr:prefecture": "",
        "addr:city": "",
        "addr:full": "",
        "source": "OSM"
      }
    },
    {
      "type": "Feature",
      "geometry": {
        "type": "Point",
        "coordinates": [
          139.5155329,
          35.6588663
        ]
      },
      "properties": {
        "osm_id": "node/2097888873",
        "name": "吉亀寿司",
        "name_reading": "",
        "amenity": "restaurant",
        "shop": "",
        "cuisine": "sushi",
        "addr:prefecture": "",
        "addr:city": "",
        "addr:full": "",
        "source": "OSM"
      }
    },
    {
      "type": "Feature",
      "geometry": {
        "type": "Point",
        "coordinates": [
          139.5718739,
          35.6180284
        ]
      },
      "properties": {
        "osm_id": "node/2106182568",
        "name": "三幸寿司",
        "name_reading": "",
        "amenity": "restaurant",
        "shop": "",
        "cuisine": "sushi",
        "addr:prefecture": "",
        "addr:city": "",
        "addr:full": "",
        "source": "OSM"
      }
    },
    {
      "type": "Feature",
      "geometry": {
        "type": "Point",
        "coordinates": [
          139.6070422,
          35.7839713
        ]
      },
      "properties": {
        "osm_id": "node/2124633994",
        "name": "がってん寿司",
        "name_reading": "",
        "amenity": "restaurant",
        "shop": "",
        "cuisine": "sushi",
        "addr:prefecture": "",
        "addr:city": "",
        "addr:full": "",
        "source": "OSM"
      }
    },
    {
      "type": "Feature",
      "geometry": {
        "type": "Point",
        "coordinates": [
          139.5874613,
          35.6993779
        ]
      },
      "properties": {
        "osm_id": "node/2128348459",
        "name": "吉祥寺 ふじ本",
        "name_reading": "",
        "amenity": "restaurant",
        "shop": "",
        "cuisine": "sushi",
        "addr:prefecture": "",
        "addr:city": "",
        "addr:full": "",
        "source": "OSM"
      }
    },
    {
      "type": "Feature",
      "geometry": {
        "type": "Point",
        "coordinates": [
          139.58678,
          35.6996949
        ]
      },
      "properties": {
        "osm_id": "node/2128348460",
        "name": "寿司銀",
        "name_reading": "",
        "amenity": "restaurant",
        "shop": "",
        "cuisine": "sushi",
        "addr:prefecture": "",
        "addr:city": "",
        "addr:full": "",
        "source": "OSM"
      }
    },
    {
      "type": "Feature",
      "geometry": {
        "type": "Point",
        "coordinates": [
          139.5484154,
          35.6520322
        ]
      },
      "properties": {
        "osm_id": "node/2147414248",
        "name": "鮨松",
        "name_reading": "",
        "amenity": "restaurant",
        "shop": "",
        "cuisine": "sushi",
        "addr:prefecture": "",
        "addr:city": "",
        "addr:full": "",
        "source": "OSM"
      }
    },
    {
      "type": "Feature",
      "geometry": {
        "type": "Point",
        "coordinates": [
          139.50559,
          35.700811
        ]
      },
      "properties": {
        "osm_id": "node/2147459864",
        "name": "すし三崎丸",
        "name_reading": "",
        "amenity": "fast_food",
        "shop": "",
        "cuisine": "sushi",
        "addr:prefecture": "",
        "addr:city": "",
        "addr:full": "",
        "source": "OSM"
      }
    },
    {
      "type": "Feature",
      "geometry": {
        "type": "Point",
        "coordinates": [
          139.560688,
          35.701906
        ]
      },
      "properties": {
        "osm_id": "node/2148536056",
        "name": "千代田鮨",
        "name_reading": "",
        "amenity": "restaurant",
        "shop": "",
        "cuisine": "sushi",
        "addr:prefecture": "",
        "addr:city": "",
        "addr:full": "",
        "source": "OSM"
      }
    },
    {
      "type": "Feature",
      "geometry": {
        "type": "Point",
        "coordinates": [
          139.6656285,
          35.7825501
        ]
      },
      "properties": {
        "osm_id": "node/2166927833",
        "name": "銚子丸",
        "name_reading": "銚子丸",
        "amenity": "fast_food",
        "shop": "",
        "cuisine": "sushi",
        "addr:prefecture": "",
        "addr:city": "",
        "addr:full": "",
        "source": "OSM"
      }
    },
    {
      "type": "Feature",
      "geometry": {
        "type": "Point",
        "coordinates": [
          139.5011731,
          35.670129
        ]
      },
      "properties": {
        "osm_id": "node/2179940479",
        "name": "スシロー",
        "name_reading": "Sushiro",
        "amenity": "fast_food",
        "shop": "",
        "cuisine": "sushi",
        "addr:prefecture": "",
        "addr:city": "",
        "addr:full": "",
        "source": "OSM"
      }
    },
    {
      "type": "Feature",
      "geometry": {
        "type": "Point",
        "coordinates": [
          139.7220376,
          35.6013446
        ]
      },
      "properties": {
        "osm_id": "node/2189347070",
        "name": "茶月 西大井店",
        "name_reading": "",
        "amenity": "fast_food",
        "shop": "",
        "cuisine": "sushi",
        "addr:prefecture": "",
        "addr:city": "",
        "addr:full": "",
        "source": "OSM"
      }
    },
    {
      "type": "Feature",
      "geometry": {
        "type": "Point",
        "coordinates": [
          139.768226,
          35.71293
        ]
      },
      "properties": {
        "osm_id": "node/2192116978",
        "name": "英多郎寿司",
        "name_reading": "",
        "amenity": "restaurant",
        "shop": "",
        "cuisine": "sushi",
        "addr:prefecture": "",
        "addr:city": "",
        "addr:full": "",
        "source": "OSM"
      }
    },
    {
      "type": "Feature",
      "geometry": {
        "type": "Point",
        "coordinates": [
          139.6318167,
          35.666615
        ]
      },
      "properties": {
        "osm_id": "node/2194290172",
        "name": "だんらん",
        "name_reading": "",
        "amenity": "restaurant",
        "shop": "",
        "cuisine": "sushi",
        "addr:prefecture": "",
        "addr:city": "",
        "addr:full": "",
        "source": "OSM"
      }
    },
    {
      "type": "Feature",
      "geometry": {
        "type": "Point",
        "coordinates": [
          139.6966813,
          35.6882789
        ]
      },
      "properties": {
        "osm_id": "node/2198521669",
        "name": "板前寿司",
        "name_reading": "いたまえずし",
        "amenity": "restaurant",
        "shop": "",
        "cuisine": "japanese;sushi",
        "addr:prefecture": "",
        "addr:city": "",
        "addr:full": "",
        "source": "OSM"
      }
    },
    {
      "type": "Feature",
      "geometry": {
        "type": "Point",
        "coordinates": [
          139.7443413,
          35.6702244
        ]
      },
      "properties": {
        "osm_id": "node/2211350353",
        "name": "",
        "name_reading": "",
        "amenity": "restaurant",
        "shop": "",
        "cuisine": "sushi",
        "addr:prefecture": "",
        "addr:city": "",
        "addr:full": "",
        "source": "OSM"
      }
    },
    {
      "type": "Feature",
      "geometry": {
        "type": "Point",
        "coordinates": [
          139.782533,
          35.657173
        ]
      },
      "properties": {
        "osm_id": "node/2225391199",
        "name": "下高井戸 旭鮨総本店",
        "name_reading": "",
        "amenity": "restaurant",
        "shop": "",
        "cuisine": "sushi",
        "addr:prefecture": "",
        "addr:city": "",
        "addr:full": "",
        "source": "OSM"
      }
    },
    {
      "type": "Feature",
      "geometry": {
        "type": "Point",
        "coordinates": [
          139.747384,
          35.73552
        ]
      },
      "properties": {
        "osm_id": "node/2236328721",
        "name": "髙はし",
        "name_reading": "",
        "amenity": "restaurant",
        "shop": "",
        "cuisine": "sushi",
        "addr:prefecture": "",
        "addr:city": "",
        "addr:full": "",
        "source": "OSM"
      }
    },
    {
      "type": "Feature",
      "geometry": {
        "type": "Point",
        "coordinates": [
          139.7446672,
          35.7362589
        ]
      },
      "properties": {
        "osm_id": "node/2236779075",
        "name": "さかえ寿司",
        "name_reading": "",
        "amenity": "restaurant",
        "shop": "",
        "cuisine": "sushi",
        "addr:prefecture": "",
        "addr:city": "",
        "addr:full": "",
        "source": "OSM"
      }
    },
    {
      "type": "Feature",
      "geometry": {
        "type": "Point",
        "coordinates": [
          139.6966167,
          35.6027712
        ]
      },
      "properties": {
        "osm_id": "node/2250403561",
        "name": "市の瀬",
        "name_reading": "市の瀬",
        "amenity": "restaurant",
        "shop": "",
        "cuisine": "sushi",
        "addr:prefecture": "",
        "addr:city": "",
        "addr:full": "",
        "source": "OSM"
      }
    },
    {
      "type": "Feature",
      "geometry": {
        "type": "Point",
        "coordinates": [
          139.7732377,
          35.6973077
        ]
      },
      "properties": {
        "osm_id": "node/2262375010",
        "name": "銀蔵",
        "name_reading": "Ginzō",
        "amenity": "restaurant",
        "shop": "",
        "cuisine": "sushi",
        "addr:prefecture": "",
        "addr:city": "",
        "addr:full": "",
        "source": "OSM"
      }
    },
    {
      "type": "Feature",
      "geometry": {
        "type": "Point",
        "coordinates": [
          139.774087,
          35.7077194
        ]
      },
      "properties": {
        "osm_id": "node/2271630380",
        "name": "回転寿司 大江戸",
        "name_reading": "",
        "amenity": "fast_food",
        "shop": "",
        "cuisine": "sushi",
        "addr:prefecture": "",
        "addr:city": "",
        "addr:full": "",
        "source": "OSM"
      }
    },
    {
      "type": "Feature",
      "geometry": {
        "type": "Point",
        "coordinates": [
          139.7723957,
          35.7081953
        ]
      },
      "properties": {
        "osm_id": "node/2271650458",
        "name": "吉鮨",
        "name_reading": "",
        "amenity": "restaurant",
        "shop": "",
        "cuisine": "sushi",
        "addr:prefecture": "",
        "addr:city": "",
        "addr:full": "",
        "source": "OSM"
      }
    },
    {
      "type": "Feature",
      "geometry": {
        "type": "Point",
        "coordinates": [
          139.7703551,
          35.7083968
        ]
      },
      "properties": {
        "osm_id": "node/2271674937",
        "name": "すしざんまい",
        "name_reading": "",
        "amenity": "restaurant",
        "shop": "",
        "cuisine": "sushi",
        "addr:prefecture": "",
        "addr:city": "",
        "addr:full": "",
        "source": "OSM"
      }
    },
    {
      "type": "Feature",
      "geometry": {
        "type": "Point",
        "coordinates": [
          139.6145246,
          35.6715456
        ]
      },
      "properties": {
        "osm_id": "node/2273425923",
        "name": "鮨 新川",
        "name_reading": "",
        "amenity": "restaurant",
        "shop": "",
        "cuisine": "sushi",
        "addr:prefecture": "",
        "addr:city": "",
        "addr:full": "",
        "source": "OSM"
      }
    },
    {
      "type": "Feature",
      "geometry": {
        "type": "Point",
        "coordinates": [
          139.8946189,
          35.6606375
        ]
      },
      "properties": {
        "osm_id": "node/2282807353",
        "name": "日の出寿司",
        "name_reading": "",
        "amenity": "restaurant",
        "shop": "",
        "cuisine": "fish",
        "addr:prefecture": "",
        "addr:city": "",
        "addr:full": "",
        "source": "OSM"
      }
    },
    {
      "type": "Feature",
      "geometry": {
        "type": "Point",
        "coordinates": [
          139.7601452,
          35.672541
        ]
      },
      "properties": {
        "osm_id": "node/2291366284",
        "name": "すし好",
        "name_reading": "",
        "amenity": "restaurant",
        "shop": "",
        "cuisine": "sushi",
        "addr:prefecture": "",
        "addr:city": "",
        "addr:full": "",
        "source": "OSM"
      }
    },
    {
      "type": "Feature",
      "geometry": {
        "type": "Point",
        "coordinates": [
          139.7308399,
          35.5851423
        ]
      },
      "properties": {
        "osm_id": "node/2305959183",
        "name": "みこし寿司",
        "name_reading": "みこし寿司",
        "amenity": "fast_food",
        "shop": "",
        "cuisine": "sushi",
        "addr:prefecture": "",
        "addr:city": "",
        "addr:full": "",
        "source": "OSM"
      }
    },
    {
      "type": "Feature",
      "geometry": {
        "type": "Point",
        "coordinates": [
          139.8261263,
          35.7466906
        ]
      },
      "properties": {
        "osm_id": "node/2315877437",
        "name": "魚がし寿司",
        "name_reading": "",
        "amenity": "restaurant",
        "shop": "",
        "cuisine": "sushi",
        "addr:prefecture": "",
        "addr:city": "",
        "addr:full": "",
        "source": "OSM"
      }
    },
    {
      "type": "Feature",
      "geometry": {
        "type": "Point",
        "coordinates": [
          139.7353711,
          35.6051442
        ]
      },
      "properties": {
        "osm_id": "node/2321719634",
        "name": "すし道",
        "name_reading": "",
        "amenity": "restaurant",
        "shop": "",
        "cuisine": "soba",
        "addr:prefecture": "",
        "addr:city": "",
        "addr:full": "",
        "source": "OSM"
      }
    },
    {
      "type": "Feature",
      "geometry": {
        "type": "Point",
        "coordinates": [
          139.7181196,
          35.5623205
        ]
      },
      "properties": {
        "osm_id": "node/2324145492",
        "name": "健寿司",
        "name_reading": "",
        "amenity": "restaurant",
        "shop": "",
        "cuisine": "",
        "addr:prefecture": "",
        "addr:city": "",
        "addr:full": "",
        "source": "OSM"
      }
    },
    {
      "type": "Feature",
      "geometry": {
        "type": "Point",
        "coordinates": [
          139.717958,
          35.562084
        ]
      },
      "properties": {
        "osm_id": "node/2324185047",
        "name": "旭寿司",
        "name_reading": "",
        "amenity": "restaurant",
        "shop": "",
        "cuisine": "",
        "addr:prefecture": "",
        "addr:city": "",
        "addr:full": "",
        "source": "OSM"
      }
    },
    {
      "type": "Feature",
      "geometry": {
        "type": "Point",
        "coordinates": [
          139.7353218,
          35.6049705
        ]
      },
      "properties": {
        "osm_id": "node/2332671720",
        "name": "喜鮨",
        "name_reading": "",
        "amenity": "restaurant",
        "shop": "",
        "cuisine": "sushi",
        "addr:prefecture": "",
        "addr:city": "",
        "addr:full": "",
        "source": "OSM"
      }
    },
    {
      "type": "Feature",
      "geometry": {
        "type": "Point",
        "coordinates": [
          139.7304086,
          35.5531818
        ]
      },
      "properties": {
        "osm_id": "node/2340371741",
        "name": "まつ本",
        "name_reading": "",
        "amenity": "restaurant",
        "shop": "",
        "cuisine": "sushi",
        "addr:prefecture": "",
        "addr:city": "",
        "addr:full": "",
        "source": "OSM"
      }
    },
    {
      "type": "Feature",
      "geometry": {
        "type": "Point",
        "coordinates": [
          139.69198,
          35.683066
        ]
      },
      "properties": {
        "osm_id": "node/2340402128",
        "name": "新宿北澤倶楽部",
        "name_reading": "",
        "amenity": "restaurant",
        "shop": "",
        "cuisine": "sushi",
        "addr:prefecture": "",
        "addr:city": "",
        "addr:full": "",
        "source": "OSM"
      }
    },
    {
      "type": "Feature",
      "geometry": {
        "type": "Point",
        "coordinates": [
          139.696532,
          35.685207
        ]
      },
      "properties": {
        "osm_id": "node/2340406775",
        "name": "鮨鶴",
        "name_reading": "",
        "amenity": "restaurant",
        "shop": "",
        "cuisine": "sushi",
        "addr:prefecture": "",
        "addr:city": "",
        "addr:full": "",
        "source": "OSM"
      }
    },
    {
      "type": "Feature",
      "geometry": {
        "type": "Point",
        "coordinates": [
          139.7221616,
          35.5598688
        ]
      },
      "properties": {
        "osm_id": "node/2340588413",
        "name": "和加松鮨",
        "name_reading": "",
        "amenity": "restaurant",
        "shop": "",
        "cuisine": "sushi",
        "addr:prefecture": "",
        "addr:city": "",
        "addr:full": "",
        "source": "OSM"
      }
    },
    {
      "type": "Feature",
      "geometry": {
        "type": "Point",
        "coordinates": [
          139.568665,
          35.64226
        ]
      },
      "properties": {
        "osm_id": "node/2355592900",
        "name": "沢元",
        "name_reading": "",
        "amenity": "restaurant",
        "shop": "",
        "cuisine": "sushi",
        "addr:prefecture": "",
        "addr:city": "",
        "addr:full": "",
        "source": "OSM"
      }
    },
    {
      "type": "Feature",
      "geometry": {
        "type": "Point",
        "coordinates": [
          139.711235,
          35.5977526
        ]
      },
      "properties": {
        "osm_id": "node/2356804183",
        "name": "堰",
        "name_reading": "イゼキ",
        "amenity": "restaurant",
        "shop": "",
        "cuisine": "sushi;sashimi",
        "addr:prefecture": "",
        "addr:city": "大田区",
        "addr:full": "",
        "source": "OSM"
      }
    },
    {
      "type": "Feature",
      "geometry": {
        "type": "Point",
        "coordinates": [
          139.7307735,
          35.6185633
        ]
      },
      "properties": {
        "osm_id": "node/2364367843",
        "name": "竹宝亭",
        "name_reading": "",
        "amenity": "restaurant",
        "shop": "",
        "cuisine": "sushi",
        "addr:prefecture": "",
        "addr:city": "",
        "addr:full": "",
        "source": "OSM"
      }
    },
    {
      "type": "Feature",
      "geometry": {
        "type": "Point",
        "coordinates": [
          139.783815,
          35.68488
        ]
      },
      "properties": {
        "osm_id": "node/2366888971",
        "name": "海鮮三崎港",
        "name_reading": "",
        "amenity": "fast_food",
        "shop": "",
        "cuisine": "sushi",
        "addr:prefecture": "",
        "addr:city": "",
        "addr:full": "",
        "source": "OSM"
      }
    },
    {
      "type": "Feature",
      "geometry": {
        "type": "Point",
        "coordinates": [
          139.7828311,
          35.6859448
        ]
      },
      "properties": {
        "osm_id": "node/2366896938",
        "name": "ちよだ鮨",
        "name_reading": "ちよだ鮨",
        "amenity": "fast_food",
        "shop": "",
        "cuisine": "sushi",
        "addr:prefecture": "",
        "addr:city": "",
        "addr:full": "",
        "source": "OSM"
      }
    },
    {
      "type": "Feature",
      "geometry": {
        "type": "Point",
        "coordinates": [
          139.8940593,
          35.6553365
        ]
      },
      "properties": {
        "osm_id": "node/2367502415",
        "name": "すし処　善",
        "name_reading": "",
        "amenity": "restaurant",
        "shop": "",
        "cuisine": "sushi",
        "addr:prefecture": "",
        "addr:city": "",
        "addr:full": "",
        "source": "OSM"
      }
    },